City_ID,City,Lat,Lng,Max Temp,Humidity,Cloudiness,Wind Speed,Country,Date
0,lodja,-3.4833,23.4333,19.74,90,100,1.12,CD,1675658023
1,rosarito,32.3333,-117.0333,12.85,78,4,4.82,MX,1675658024
2,puerto escondido,15.85,-97.0667,25.46,78,0,2.57,MX,1675658024
3,mahebourg,-20.4081,57.7,28.47,78,40,3.6,MU,1675658024
4,ushtobe,45.2514,77.9838,-0.01,92,100,0.59,KZ,1675658025
5,ushuaia,-54.8,-68.3,5.81,65,75,4.12,AR,1675657914
6,vaini,-21.2,-175.2,28.09,74,20,3.09,TO,1675657977
7,college,64.8569,-147.8028,-17.01,81,20,3.09,US,1675658025
8,fukue,32.6881,128.8419,11.2,62,75,3.6,JP,1675658026
9,half moon bay,37.4636,-122.4286,10.42,85,75,10.8,US,1675657840
10,diffa,13.3154,12.6113,21.01,22,88,4.88,NE,1675657932
11,hobart,-42.8794,147.3294,23.92,47,0,8.75,AU,1675657808
12,cayeli,41.0923,40.7292,6.8,73,100,2.16,TR,1675658026
13,bethel,41.3712,-73.414,4.16,66,0,0.0,US,1675657976
14,albany,42.6001,-73.9662,4.23,63,100,1.62,US,1675657974
15,anadyr,64.75,177.4833,-29.72,74,75,5.0,RU,1675658027
16,vila velha,-20.3297,-40.2925,26.08,86,0,3.09,BR,1675658027
17,broome,42.2506,-75.833,5.47,64,100,4.63,US,1675658028
18,tasiilaq,65.6145,-37.6368,-4.91,91,98,4.89,GL,1675658016
19,punta arenas,-53.15,-70.9167,10.06,71,75,4.63,CL,1675657753
20,asau,46.4333,26.4,-3.49,94,98,3.49,RO,1675658028
21,bahir dar,11.5936,37.3908,18.19,31,80,1.78,ET,1675658029
22,rikitea,-23.1203,-134.9692,25.99,76,3,6.42,PF,1675657981
23,puerto ayora,-0.7393,-90.3518,26.42,92,29,2.68,EC,1675658014
24,santiago del estero,-27.7951,-64.2615,23.28,47,20,2.56,AR,1675658029
25,cao bang,22.6667,106.25,17.46,98,100,1.11,VN,1675658029
26,kropotkin,45.4375,40.5756,-1.49,78,61,7.0,RU,1675658030
27,san patricio,28.017,-97.5169,18.92,93,0,3.5,US,1675657991
28,cape town,-33.9258,18.4232,21.62,86,20,6.69,ZA,1675658007
29,caravelas,-17.7125,-39.2481,24.98,86,0,4.05,BR,1675658030
30,vestmanna,62.1564,-7.1664,8.51,93,100,11.32,FO,1675658031
31,busselton,-33.65,115.3333,27.55,43,0,6.92,AU,1675657976
32,lakes entrance,-37.8811,147.981,22.87,62,3,5.35,AU,1675658031
33,atuona,-9.8,-139.0333,26.06,76,12,7.3,PF,1675657987
34,ribeira grande,38.5167,-28.7,15.99,95,100,5.36,PT,1675658031
35,mar del plata,-38.0023,-57.5575,23.94,73,0,3.6,AR,1675658032
36,kahului,20.8947,-156.47,24.43,78,0,8.75,US,1675658012
37,port macquarie,-31.4333,152.9167,28.27,60,1,5.62,AU,1675658032
38,bluff,-46.6,168.3333,15.62,77,86,10.77,NZ,1675657993
39,tuktoyaktuk,69.4541,-133.0374,-42.0,60,0,2.57,CA,1675658033
40,new norfolk,-42.7826,147.0587,23.72,48,33,3.58,AU,1675658033
41,beloha,-25.1667,45.05,24.02,80,100,4.96,MG,1675658033
42,jamestown,42.097,-79.2353,3.9,89,100,3.6,US,1675657984
43,kaitangata,-46.2817,169.8464,19.54,53,69,4.82,NZ,1675658034
44,port elizabeth,-33.918,25.5701,23.94,97,100,3.6,ZA,1675658034
45,enshi,30.3,109.4833,14.12,62,37,1.06,CN,1675658035
46,upernavik,72.7868,-56.1549,-26.58,93,100,6.61,GL,1675658035
47,anloga,5.7947,0.8973,26.92,86,100,5.31,GH,1675658035
48,georgetown,5.4112,100.3354,27.97,81,40,5.14,MY,1675657842
49,longyearbyen,78.2186,15.6401,-5.09,80,20,5.66,SJ,1675658036
50,obidos,-1.9175,-55.5181,22.46,96,40,1.19,BR,1675658036
51,airai,-8.9266,125.4092,21.16,74,88,1.64,TL,1675658036
52,nurota,40.5614,65.6886,4.49,61,100,1.64,UZ,1675658037
53,nouakchott,18.0858,-15.9785,15.96,37,41,7.08,MR,1675658037
54,kleive,62.7954,7.6359,4.18,100,100,2.57,NO,1675658037
55,mount isa,-20.7333,139.5,30.87,66,40,3.6,AU,1675657903
56,sitka,57.0531,-135.33,5.94,70,100,12.35,US,1675658038
57,torbay,47.6666,-52.7314,-0.96,85,75,9.77,CA,1675657992
58,san cristobal,7.7669,-72.225,21.1,87,20,1.33,VE,1675658038
59,port alfred,-33.5906,26.891,22.88,95,57,3.37,ZA,1675657976
60,tecpan,14.7623,-90.9947,10.9,97,3,2.55,GT,1675658039
61,acapulco,16.8634,-99.8901,26.9,74,0,1.54,MX,1675657900
62,erenhot,43.6475,111.9767,-4.86,31,45,2.32,CN,1675658039
63,abatskoye,56.2875,70.4555,-17.52,99,100,1.29,RU,1675658039
64,geraldton,-28.7667,114.6,27.23,54,75,7.72,AU,1675657888
65,sao filipe,14.8961,-24.4956,20.09,64,56,7.7,CV,1675657998
66,dikson,73.5069,80.5464,-17.85,97,100,1.47,RU,1675657991
67,cabedelo,-6.9811,-34.8339,25.37,82,19,3.25,BR,1675658040
68,constitucion,-35.3333,-72.4167,15.76,79,12,1.47,CL,1675658040
69,talakan,50.3167,130.3667,-13.69,83,100,1.53,RU,1675658041
70,vostok,46.4856,135.8833,-12.93,75,82,3.98,RU,1675658041
71,ambon,-3.6954,128.1814,32.08,62,40,3.6,ID,1675658041
72,mitchell,43.7094,-98.0298,-3.01,85,0,6.17,US,1675658042
73,butaritari,3.0707,172.7902,27.14,81,54,8.26,KI,1675658042
74,thompson,55.7435,-97.8558,-12.91,85,100,1.54,CA,1675657846
75,klaksvik,62.2266,-6.589,9.51,91,100,15.98,FO,1675658043
76,general roca,-39.0333,-67.5833,24.79,23,0,10.44,AR,1675657952
77,senanga,-16.1167,23.2667,19.34,96,100,3.08,ZM,1675658045
78,lumatil,5.8747,124.8883,32.99,63,83,0.37,PH,1675658045
79,barrow,71.2906,-156.7887,-29.99,83,75,0.0,US,1675657982
80,east london,-33.0153,27.9116,23.52,88,75,3.6,ZA,1675657905
81,kathmandu,27.7167,85.3167,15.12,63,20,1.54,NP,1675658047
82,nuevo ideal,24.8875,-105.0728,11.93,28,0,2.37,MX,1675657798
83,ugoofaaru,5.6667,73.0,27.04,76,91,2.51,MV,1675658048
84,tiksi,71.6872,128.8694,-30.13,100,100,1.66,RU,1675658000
85,andra,62.5147,65.8878,-23.38,100,99,1.63,RU,1675658049
86,kalmunai,7.4167,81.8167,26.25,83,100,5.9,LK,1675658049
87,mayo,38.8876,-76.5119,10.09,71,0,2.57,US,1675658050
88,provideniya,64.3833,-173.3,-13.94,78,100,5.0,RU,1675658050
89,gainesville,29.6516,-82.3248,13.19,80,0,0.0,US,1675657983
90,caceres,39.522,-6.3748,3.35,76,0,1.09,ES,1675658051
91,kolpashevo,58.3131,82.9089,-14.42,98,100,1.03,RU,1675658051
92,avarua,-21.2078,-159.775,27.03,83,40,4.63,CK,1675657979
93,dukhovnitskoye,52.4828,48.2137,-15.53,97,95,1.46,RU,1675658052
94,codrington,-38.2667,141.9667,19.13,57,41,4.89,AU,1675658053
95,hermanus,-34.4187,19.2345,21.0,88,69,5.88,ZA,1675657980
96,sao joao da barra,-21.6403,-41.0511,24.13,94,9,1.57,BR,1675658053
97,pevek,69.7008,170.3133,-38.15,100,96,1.44,RU,1675658054
98,inta,66.0317,60.1659,-16.07,96,97,4.25,RU,1675658055
99,umm lajj,25.0213,37.2685,18.98,56,22,2.17,SA,1675658055
100,guerrero negro,27.9769,-114.0611,15.19,88,94,7.67,MX,1675658056
101,chokurdakh,70.6333,147.9167,-35.46,99,94,1.32,RU,1675657994
102,tazovskiy,67.4667,78.7,-23.73,100,90,2.82,RU,1675658057
103,kushima,31.4583,131.2333,12.89,85,100,3.92,JP,1675658057
104,turangi,-39.0,175.9333,17.79,88,95,1.74,NZ,1675658057
105,richards bay,-28.783,32.0377,24.09,84,48,0.86,ZA,1675658059
106,khatanga,71.9667,102.5,-36.85,99,48,2.74,RU,1675657999
107,maragogi,-9.0122,-35.2225,24.86,87,26,2.31,BR,1675658060
108,kyrksaeterora,63.2906,9.0891,1.35,85,99,2.47,NO,1675658060
109,qaqortoq,60.7167,-46.0333,-11.69,85,75,7.52,GL,1675658061
110,hithadhoo,-0.6,73.0833,27.4,71,79,4.98,MV,1675658062
111,petatlan,17.5167,-101.2667,21.98,73,0,1.4,MX,1675658062
112,chermoz,58.787,56.1489,-21.58,100,99,2.12,RU,1675658063
113,mataura,-46.1927,168.8643,19.06,54,89,3.53,NZ,1675658063
114,bredasdorp,-34.5322,20.0403,21.14,86,70,5.65,ZA,1675657977
115,porto walter,-8.2686,-72.7439,21.52,97,100,0.8,BR,1675658066
116,faanui,-16.4833,-151.75,27.57,73,11,6.46,PF,1675658066
117,nizhneivkino,58.194,49.5214,-22.54,100,99,1.28,RU,1675657996
118,algiers,36.7525,3.042,8.9,93,75,2.57,DZ,1675657794
119,flin flon,54.7682,-101.865,-2.68,97,100,3.37,CA,1675657842
120,dayal bagh,27.2167,78.0167,22.66,34,0,2.59,IN,1675658069
121,sao fidelis,-21.6461,-41.7469,23.5,93,80,0.58,BR,1675658070
122,innisfail,-17.5333,146.0333,28.4,84,100,2.91,AU,1675658070
123,kodiak,57.79,-152.4072,1.73,80,100,14.92,US,1675657979
124,blackpool,53.8167,-3.05,2.74,77,46,3.24,GB,1675658071
125,cherskiy,68.75,161.3,-40.13,100,100,2.09,RU,1675658071
126,talnakh,69.4865,88.3972,-17.11,99,100,0.69,RU,1675657997
127,tamesis,5.6646,-75.7134,15.5,94,70,0.48,CO,1675658071
128,acarau,-2.8856,-40.12,24.68,89,28,3.3,BR,1675658072
129,ust-kuyga,70.0167,135.6,-37.59,100,97,2.18,RU,1675658072
130,qaanaaq,77.484,-69.3632,-24.4,91,66,2.76,GL,1675658072
131,salalah,17.0151,54.0924,21.05,73,0,1.54,OM,1675657914
132,bahia blanca,-38.7196,-62.2724,24.05,62,1,0.89,AR,1675657820
133,avera,33.194,-82.5271,7.73,93,0,2.84,US,1675658073
134,puerto del rosario,28.5004,-13.8627,14.86,72,40,3.6,ES,1675658073
135,ternate,0.8,127.4,26.14,79,100,2.78,ID,1675658074
136,flinders,-34.5833,150.8552,27.81,70,0,5.69,AU,1675658074
137,castro,-24.7911,-50.0119,15.26,86,13,1.86,BR,1675658014
138,camopi,3.1655,-52.3158,21.71,100,100,0.24,GF,1675658075
139,makakilo city,21.3469,-158.0858,25.18,69,40,4.12,US,1675658075
140,ulladulla,-35.35,150.4667,25.05,61,4,3.62,AU,1675658075
141,kirakira,-10.4544,161.9205,26.21,89,100,9.64,SB,1675658075
142,pokaran,26.9167,71.9167,23.72,38,0,3.18,IN,1675658076
143,saint-pierre,-21.3393,55.4781,28.82,65,0,3.6,RE,1675658076
144,kruisfontein,-34.0033,24.7314,22.71,95,98,2.68,ZA,1675658076
145,coihaique,-45.5752,-72.0662,13.97,47,0,3.6,CL,1675657827
146,hilo,19.7297,-155.09,23.49,92,0,0.45,US,1675657953
147,bengkulu,-3.8004,102.2655,29.07,62,83,5.65,ID,1675658077
148,rawson,-43.3002,-65.1023,16.91,63,43,5.52,AR,1675658077
149,clyde river,70.4692,-68.5914,-29.87,69,0,2.57,CA,1675657990
150,vila franca do campo,37.7167,-25.4333,15.23,85,94,3.03,PT,1675658078
151,syava,58.0146,46.3222,-18.66,100,91,0.57,RU,1675658078
152,carnarvon,-24.8667,113.6333,28.68,59,0,8.5,AU,1675658078
153,alugan,12.2188,125.4808,26.98,84,54,4.94,PH,1675658079
154,royan,45.6285,-1.0281,2.66,83,22,6.34,FR,1675658079
155,russell,32.3502,-85.1999,11.57,93,0,0.0,US,1675658079
156,redding,40.5865,-122.3917,7.57,90,0,0.45,US,1675658080
157,asyut,27.181,31.1837,8.1,51,0,2.47,EG,1675658080
158,kendari,-3.945,122.4989,29.25,71,94,2.26,ID,1675658080
159,buala,-8.145,159.5921,24.86,93,100,4.7,SB,1675658081
160,victoria,22.2855,114.1577,22.76,83,98,3.13,HK,1675657953
161,inhambane,-23.865,35.3833,24.23,79,47,3.17,MZ,1675658081
162,northam,51.0333,-4.2167,2.56,89,12,2.91,GB,1675658081
163,bonthe,7.5264,-12.505,24.47,83,100,1.95,SL,1675658082
164,shakawe,-18.3667,21.85,19.56,92,95,1.14,BW,1675658082
165,arlit,18.7369,7.3853,19.26,17,35,3.49,NE,1675658083
166,tual,-5.6667,132.75,27.1,80,100,8.63,ID,1675658083
167,severo-kurilsk,50.6789,156.125,-2.72,64,100,9.3,RU,1675658003
168,ucluelet,48.9329,-125.5528,7.83,86,99,1.79,CA,1675657846
169,sooke,48.3746,-123.7276,8.65,92,100,6.21,CA,1675658083
170,nikolskoye,59.7035,30.7861,-2.06,98,100,1.41,RU,1675657978
171,kodinsk,58.6881,99.1844,-10.19,92,100,3.18,RU,1675658084
172,tarakan,3.3,117.6333,30.72,70,40,3.6,ID,1675658084
173,sangar,63.9242,127.4739,-36.89,96,100,1.86,RU,1675658085
174,bambous virieux,-20.3428,57.7575,28.45,78,40,3.6,MU,1675658085
175,mao,39.8885,4.2658,11.31,62,75,11.32,ES,1675658085
176,leshukonskoye,64.8989,45.7622,-22.26,100,100,2.28,RU,1675658085
177,omboue,-1.5746,9.2618,25.26,86,99,1.67,GA,1675658086
178,camapua,-19.5314,-54.0439,21.46,94,92,0.25,BR,1675658086
179,maroantsetra,-15.4333,49.7333,25.16,86,100,0.41,MG,1675658087
180,oulu,65.0124,25.4682,-10.94,58,0,2.06,FI,1675658087
181,oranjemund,-28.55,16.4333,17.49,94,98,2.48,NA,1675658087
182,arraial do cabo,-22.9661,-42.0278,23.51,88,53,1.89,BR,1675658088
183,xining,36.6167,101.7667,0.7,36,88,1.25,CN,1675658088
184,muskogee,35.5834,-95.3336,9.08,64,0,3.6,US,1675658088
185,xuchang,34.0167,113.8167,13.08,42,78,2.71,CN,1675658089
186,eydhafushi,5.1033,73.0708,27.22,77,100,5.25,MV,1675658089
187,kalat,29.0225,66.5916,6.57,35,0,3.14,PK,1675658089
188,ixtapa,20.7,-105.2,21.79,88,0,1.54,MX,1675658011
189,japoata,-10.3467,-36.8011,22.95,93,10,1.81,BR,1675658090
190,carinhanha,-14.3047,-43.765,23.32,72,24,0.14,BR,1675658090
191,port lincoln,-34.7333,135.8667,21.81,58,2,4.9,AU,1675658091
192,eirunepe,-6.6603,-69.8736,21.81,98,100,0.55,BR,1675658091
193,berlevag,70.8578,29.0864,3.0,70,82,7.2,NO,1675658091
194,kashi,39.4547,75.9797,-0.44,64,75,3.0,CN,1675658092
195,bara,10.3744,10.7288,21.68,24,100,2.64,NG,1675657965
196,itaueira,-7.6033,-43.0256,24.49,61,100,0.57,BR,1675658092
197,wattegama,6.7989,81.4808,24.85,85,100,2.87,LK,1675658092
198,hasaki,35.7333,140.8333,12.22,54,61,2.84,JP,1675658016
199,teacapan,22.55,-105.75,18.92,81,1,1.52,MX,1675658093
200,yatou,37.15,122.3833,8.23,55,58,0.6,CN,1675658093
201,laem sing,12.4816,102.0738,33.01,89,36,2.43,TH,1675658093
202,port blair,11.6667,92.75,29.02,74,40,3.6,IN,1675658094
203,oga,46.4631,10.347,-3.44,97,86,2.23,IT,1675658094
204,beruwala,6.4788,79.9828,25.38,85,100,1.31,LK,1675658095
205,aswan,24.0934,32.907,11.61,37,0,0.0,EG,1675658095
206,kiama,-34.6833,150.8667,27.92,68,0,5.73,AU,1675658095
207,moranbah,-22.0016,148.0466,32.68,53,71,6.92,AU,1675658096
208,aras,42.5617,-2.356,3.24,75,0,3.6,ES,1675658096
209,ponta do sol,32.6667,-17.1,15.56,57,5,2.58,PT,1675658097
210,umm kaddadah,13.6017,26.6876,16.95,20,56,4.76,SD,1675658097
211,the valley,18.217,-63.0578,25.05,77,3,10.82,AI,1675657940
212,huarmey,-10.0681,-78.1522,22.26,82,83,2.07,PE,1675658097
213,mehamn,71.0357,27.8492,2.97,81,40,7.72,NO,1675658098
214,bambanglipuro,-7.95,110.2833,27.54,75,99,2.74,ID,1675658001
215,de-kastri,51.4667,140.7833,-14.14,77,100,2.87,RU,1675658098
216,port hueneme,34.1478,-119.1951,13.74,72,0,12.35,US,1675658098
217,bloomingdale,27.8936,-82.2404,21.12,79,100,1.54,US,1675657957
218,isangel,-19.55,169.2667,29.25,72,100,2.35,VU,1675657979
219,kapaa,22.0752,-159.319,25.99,86,100,6.17,US,1675658099
220,ginda,30.6945,78.4932,14.12,26,0,2.29,IN,1675658099
221,bandarbeyla,9.4942,50.8122,24.38,69,85,6.88,SO,1675658100
222,platteville,42.7342,-90.4785,-3.95,86,0,3.09,US,1675658100
223,sorong,-0.8833,131.25,25.85,82,100,2.34,ID,1675658100
224,berbera,10.4396,45.0143,23.3,68,50,3.16,SO,1675658101
225,buin,-33.7333,-70.75,24.51,74,0,0.77,CL,1675658101
226,yellowknife,62.456,-114.3525,-19.69,77,100,4.63,CA,1675658102
227,samarai,-10.6167,150.6667,26.63,86,99,6.36,PG,1675658103
228,lompoc,34.6391,-120.4579,10.99,77,20,11.62,US,1675658103
229,saskylakh,71.9167,114.0833,-40.97,100,97,1.75,RU,1675658105
230,mandera,3.9366,41.867,25.37,39,43,4.0,KE,1675658105
231,klimovo,52.3805,32.1923,-7.23,95,92,3.61,RU,1675658000
232,mahibadhoo,3.7833,72.9667,27.69,74,100,4.79,MV,1675658106
233,cidreira,-30.1811,-50.2056,21.11,87,96,2.31,BR,1675658107
234,meulaboh,4.1363,96.1285,25.86,79,99,3.7,ID,1675658108
235,margate,51.3813,1.3862,5.39,90,61,0.45,GB,1675657874
236,walvis bay,-22.9575,14.5053,17.83,87,100,1.14,NA,1675658086
237,imbituba,-28.24,-48.6703,20.63,88,9,1.81,BR,1675658110
238,saryozek,44.3583,77.9753,-2.03,83,100,1.11,KZ,1675658110
239,tuatapere,-46.1333,167.6833,19.55,51,85,4.78,NZ,1675658112
240,lorengau,-2.0226,147.2712,28.52,75,87,1.79,PG,1675658113
241,albanel,48.8832,-72.4487,-12.92,85,100,2.57,CA,1675658113
242,sanmenxia,34.7747,111.1814,11.49,31,68,1.66,CN,1675658114
243,pemba,-12.974,40.5178,25.39,94,75,1.54,MZ,1675658114
244,norman wells,65.282,-126.8329,-24.98,77,75,1.54,CA,1675658115
245,sibu,2.3,111.8167,30.17,74,40,1.54,MY,1675658115
246,bundaberg,-24.85,152.35,27.9,79,66,2.24,AU,1675658116
247,harper,4.375,-7.7169,25.97,84,94,2.72,LR,1675658116
248,glendive,47.1053,-104.7125,2.79,81,75,3.6,US,1675658117
249,gwanda,-20.9333,29.0,20.45,64,3,1.52,ZW,1675658118
250,cruz grande,16.7333,-99.1333,22.6,76,0,1.62,MX,1675658118
251,bestobe,52.4994,73.0975,-17.09,96,100,1.19,KZ,1675658119
252,kroya,-7.6331,109.2461,29.57,65,100,3.61,ID,1675658120
253,puri,19.8,85.85,26.29,49,27,3.16,IN,1675658120
254,kyshtovka,56.555,76.6271,-14.99,98,100,2.05,RU,1675658121
255,pointe-noire,-4.7761,11.8635,23.04,94,40,3.6,CG,1675658122
256,la seyne-sur-mer,43.0982,5.8847,9.97,71,100,7.6,FR,1675658122
257,ayan,56.45,138.1667,-18.54,67,63,2.25,RU,1675658122
258,namibe,-15.1961,12.1522,21.12,83,97,1.98,AO,1675658123
259,lebu,-37.6167,-73.65,15.07,89,0,7.04,CL,1675657892
260,gasa,31.5,34.4667,12.71,50,27,12.96,PS,1675658124
261,humberto de campos,-2.5983,-43.4611,23.55,95,92,1.91,BR,1675658124
262,berezovyy,51.6667,135.7,-14.38,68,20,0.86,RU,1675657913
263,quatre cocos,-20.2078,57.7625,28.38,75,88,4.9,MU,1675658125
264,mundo nuevo,18.7,-95.5,22.11,87,94,3.9,MX,1675658125
265,hovd,48.0056,91.6419,-12.33,71,60,1.55,MN,1675658126
266,kavieng,-2.5744,150.7967,28.65,72,85,3.18,PG,1675658127
267,agaro,7.85,36.65,17.79,56,17,0.55,ET,1675657942
268,martil,35.6166,-5.2752,9.98,81,38,1.03,MA,1675658128
269,catamarca,-28.4696,-65.7852,20.32,57,0,4.5,AR,1675658130
270,esperance,-33.8667,121.9,31.36,38,72,7.93,AU,1675658011
271,charlestown,-32.95,151.6667,28.61,69,1,2.68,AU,1675658130
272,saint-philippe,-21.3585,55.7679,28.77,78,71,5.46,RE,1675658131
273,xunchang,28.4543,104.715,15.03,57,100,1.01,CN,1675658131
274,lavrentiya,65.5833,-171.0,-23.54,92,87,3.3,RU,1675658131
275,souillac,-20.5167,57.5167,27.21,78,40,3.6,MU,1675658132
276,marzuq,14.4,46.4667,20.59,50,29,0.53,YE,1675658132
277,maldonado,-34.6667,-54.9167,19.01,89,17,2.86,UY,1675658132
278,koungheul,13.9833,-14.8,20.69,17,82,3.54,SN,1675658133
279,saint-augustin,51.226,-58.6502,-17.72,95,100,2.1,CA,1675658133
280,aquiraz,-3.9014,-38.3911,27.32,85,32,2.98,BR,1675658133
281,nelson bay,-32.7167,152.15,27.84,71,2,8.49,AU,1675658133
282,nouadhibou,20.931,-17.0347,14.99,51,0,8.23,MR,1675658134
283,svetlogorsk,52.6333,29.7333,-8.33,96,97,1.96,BY,1675658134
284,noto,36.8901,15.0693,-2.45,60,1,2.4,IT,1675658134
285,hemnesberget,66.2333,13.6333,1.43,94,100,2.09,NO,1675658135
286,erdemli,36.605,34.3084,8.21,84,93,3.81,TR,1675658135
287,rio grande,-32.035,-52.0986,20.43,83,2,1.42,BR,1675658135
288,san pedro,14.35,121.0167,30.18,68,40,3.09,PH,1675657987
289,eyl,7.9803,49.8164,24.5,70,51,7.09,SO,1675658136
290,thohoyandou,-22.9456,30.485,20.15,70,0,0.8,ZA,1675658136
291,suclayin,15.7568,121.5503,26.1,77,100,1.51,PH,1675658136
292,zubtsov,56.1753,34.5894,-11.89,98,100,1.55,RU,1675658137
293,tetelzingo,19.0667,-97.15,6.0,86,68,0.79,MX,1675658137
294,zhanaozen,43.3,52.8,0.67,75,75,5.77,KZ,1675657840
295,samandag,36.0842,35.9771,7.5,97,100,1.56,TR,1675658138
296,araouane,18.9048,-3.5265,15.19,21,11,3.86,ML,1675658138
297,padang,-0.9492,100.3543,31.03,60,94,2.98,ID,1675658138
298,launceston,-41.45,147.1667,27.01,38,75,7.2,AU,1675658028
299,helena,46.5927,-112.0361,3.55,65,0,2.57,US,1675658139
300,luanshya,-13.1367,28.4166,17.0,97,100,1.47,ZM,1675658139
301,gizo,-8.103,156.8419,26.16,86,100,7.05,SB,1675658140
302,hays,30.0502,-98.0336,15.59,85,0,1.34,US,1675658141
303,sept-iles,50.2001,-66.3821,-16.0,73,75,2.06,CA,1675658141
304,haines junction,60.7522,-137.5108,-11.03,85,100,0.51,CA,1675658141
305,thunder bay,48.4001,-89.3168,-19.05,78,0,1.03,CA,1675657846
306,sohag,26.557,31.6948,9.92,54,2,2.31,EG,1675658142
307,abalak,58.1286,68.5944,-14.32,97,100,0.72,RU,1675658142
308,wundanyi,-3.4019,38.364,18.58,66,10,1.45,KE,1675658142
309,lasa,46.6166,10.7002,0.49,91,54,2.63,IT,1675658143
310,nieuw amsterdam,5.8833,-55.0833,25.57,86,100,3.93,SR,1675658143
311,muros,42.7762,-9.0603,5.47,83,6,3.25,ES,1675658143
312,luderitz,-26.6481,15.1594,16.62,91,87,0.63,NA,1675658144
313,komsomolskiy,40.4272,71.7189,3.4,93,100,2.06,UZ,1675658144
314,okha,53.5739,142.9478,-17.76,91,99,5.46,RU,1675657950
315,itarema,-2.9248,-39.9167,24.61,89,44,3.22,BR,1675658124
316,saint-leu,-21.15,55.2833,28.48,74,76,1.87,RE,1675657920
317,faya,18.3851,42.4509,11.06,33,84,1.81,SA,1675657936
318,saint george,37.1041,-113.5841,5.8,78,100,5.66,US,1675657939
319,bavly,54.393,53.2602,-9.47,97,100,1.05,RU,1675658145
320,zanjan,36.6736,48.4787,-0.17,55,75,4.12,IR,1675658145
321,tondabayashi,34.5,135.6,12.5,40,100,2.06,JP,1675658145
322,lata,40.1629,-8.3327,5.04,78,0,2.26,PT,1675658146
323,amiens,49.9,2.3,3.55,94,47,2.34,FR,1675658146
324,biak,-0.9131,122.8766,27.45,65,95,2.24,ID,1675658146
325,cameta,-2.2444,-49.4958,23.48,92,74,1.61,BR,1675658000
326,vangaindrano,-23.35,47.6,24.53,88,98,0.92,MG,1675658147
327,ambunti,-4.2365,142.8448,30.73,62,99,1.96,PG,1675658147
328,santa ana,33.7456,-117.8678,14.2,77,20,2.57,US,1675658094
329,taybad,34.74,60.7756,7.28,45,0,0.43,IR,1675658148
330,kattivakkam,13.2167,80.3167,28.05,62,100,4.02,IN,1675658148
331,coaticook,45.1334,-71.7991,0.87,90,95,2.68,CA,1675658148
332,seymchan,62.8833,152.4333,-29.84,93,97,0.14,RU,1675658001
333,nuuk,64.1835,-51.7216,-13.18,90,100,2.76,GL,1675657951
334,los llanos de aridane,28.6585,-17.9182,12.86,70,0,4.63,ES,1675658149
335,virginia beach,36.8529,-75.978,9.45,96,75,0.0,US,1675657943
336,jiwani,25.05,61.7417,22.21,44,7,2.95,PK,1675658149
337,merauke,-8.4667,140.3333,27.07,84,98,3.05,ID,1675658150
338,wabag,-5.4781,143.7021,17.92,88,100,1.34,PG,1675658150
339,buchanan,5.8808,-10.0467,25.59,90,99,1.84,LR,1675658150
340,namatanai,-3.6667,152.4333,28.73,70,91,2.16,PG,1675657875
341,hobyo,5.3505,48.5268,25.72,69,82,7.3,SO,1675657944
342,dongsheng,39.8161,109.9776,-0.16,27,26,2.72,CN,1675658151
343,comodoro rivadavia,-45.8667,-67.5,15.92,72,0,5.14,AR,1675658053
344,ahipara,-35.1667,173.1667,22.07,73,52,3.97,NZ,1675658151
345,saldanha,-33.0117,17.9442,17.03,88,0,2.22,ZA,1675658151
346,payakumbuh,-0.2202,100.6308,27.27,56,100,0.85,ID,1675658152
347,glazov,58.1394,52.6584,-17.39,99,94,1.79,RU,1675658152
348,kununurra,-15.7667,128.7333,34.99,24,33,2.57,AU,1675658016
349,sobolevo,54.4299,31.8996,-9.94,97,100,1.61,RU,1675657982
350,tura,25.5198,90.2201,23.65,32,0,2.01,IN,1675658004
351,laguna,38.421,-121.4238,8.99,85,0,2.06,US,1675657905
352,macaubas,-13.0194,-42.6986,20.75,65,86,1.03,BR,1675658153
353,labuhan,-6.8844,112.2051,26.64,82,98,3.35,ID,1675658153
354,nanortalik,60.1432,-45.2371,-8.33,73,100,11.52,GL,1675658153
355,butembo,0.15,29.2833,17.27,52,75,0.85,CD,1675658154
356,korla,41.7597,86.1469,0.95,50,40,0.71,CN,1675658154
357,aykhal,66.0,111.5,-28.87,95,100,1.19,RU,1675658003
358,sanski most,44.7653,16.6656,-3.67,81,84,1.23,BA,1675658155
359,sola,-13.8833,167.55,28.2,71,99,6.91,VU,1675658155
360,nemuro,43.3236,145.575,-1.52,71,70,0.87,JP,1675658155
361,den helder,52.9599,4.7593,4.99,98,100,1.03,NL,1675658156
362,mount gambier,-37.8333,140.7667,20.66,50,7,4.24,AU,1675657947
363,petropavlovsk-kamchatskiy,53.0452,158.6483,-3.67,50,40,1.0,RU,1675658156
364,cayenne,4.9333,-52.3333,22.02,100,100,0.0,GF,1675658156
365,pangnirtung,66.1451,-65.7125,-37.52,92,98,2.28,CA,1675658157
366,dickinson,29.4608,-95.0513,17.29,89,0,3.09,US,1675658132
367,kamenka,51.3223,42.7678,-14.45,98,88,1.91,RU,1675657946
368,chuy,-33.6971,-53.4616,17.58,88,0,2.18,UY,1675658157
369,saint marys,30.7305,-81.5465,12.81,91,7,2.04,US,1675658157
370,nsanje,-16.92,35.262,23.71,95,100,0.38,MW,1675658158
371,cockburn town,21.4612,-71.1419,25.51,79,1,9.32,TC,1675658158
372,parkes,-33.1333,148.1833,34.64,10,0,1.34,AU,1675658159
373,sisimiut,66.9395,-53.6735,-15.8,89,100,6.63,GL,1675657873
374,ocampo,21.65,-101.5,8.16,46,0,2.99,MX,1675658159
375,port keats,-14.25,129.55,32.89,42,86,1.81,AU,1675658159
376,tautira,-17.7333,-149.15,27.29,79,99,5.92,PF,1675658160
377,san carlos de bariloche,-41.1456,-71.3082,15.86,63,0,3.09,AR,1675657969
378,natal,-5.795,-35.2094,24.36,88,20,1.54,BR,1675658160
379,bowen,-20.0167,148.2333,29.75,72,34,7.62,AU,1675658126
380,dwarka,22.2394,68.9678,23.56,63,17,4.68,IN,1675658161
381,sistranda,63.7256,8.834,3.98,75,98,7.61,NO,1675658161
382,murchison,-41.8,172.3333,19.97,69,86,1.91,NZ,1675658161
383,karratha,-20.7377,116.8463,37.51,28,0,6.73,AU,1675658162
384,diamantino,-14.4086,-56.4461,22.41,93,94,1.54,BR,1675658163
385,port hardy,50.6996,-127.4199,5.1,93,100,2.57,CA,1675658164
386,vaasa,63.096,21.6158,-1.7,93,0,1.54,FI,1675658164
387,hammerfest,70.6634,23.6821,2.25,93,75,7.72,NO,1675658165
388,altayskoye,51.9533,85.3325,-3.28,81,100,0.93,RU,1675658166
389,bentiu,9.2333,29.8333,23.45,20,43,1.54,SS,1675658167
390,vila do maio,15.1333,-23.2167,20.44,63,86,10.54,CV,1675658167
391,awbari,26.5921,12.7805,7.89,62,9,2.98,LY,1675657878
392,batticaloa,7.7102,81.6924,26.36,81,100,5.64,LK,1675658168
393,athabasca,54.7169,-113.2854,4.23,73,84,7.81,CA,1675657970
394,bredy,52.4153,60.3411,-15.44,96,86,2.99,RU,1675658168
395,dryden,49.7833,-92.7503,-15.84,85,0,3.09,CA,1675658169
396,davila,18.4726,120.5763,29.99,64,40,2.33,PH,1675658170
397,angoram,-4.0625,144.0661,30.17,65,98,0.79,PG,1675658170
398,morondava,-20.2833,44.2833,25.21,82,88,5.05,MG,1675657918
399,arman,59.7,150.1667,-20.77,82,93,3.03,RU,1675657939
400,paamiut,61.994,-49.6678,-10.97,76,100,4.28,GL,1675658013
401,viedma,-40.8135,-62.9967,19.16,75,60,8.27,AR,1675657948
402,alyangula,-13.8483,136.4192,30.4,52,94,1.53,AU,1675658172
403,abu samrah,35.3029,37.1841,8.11,65,36,7.34,SY,1675658172
404,teya,60.3778,92.6267,-13.0,94,100,1.38,RU,1675658173
405,tromso,69.6496,18.957,3.01,70,75,8.23,NO,1675658174
406,zhezkazgan,47.8043,67.7144,-4.01,93,100,5.0,KZ,1675658175
407,ilulissat,69.2167,-51.1,-17.99,71,100,5.66,GL,1675658176
408,henties bay,-22.116,14.2845,17.36,90,100,2.23,NA,1675658176
409,bagdarin,54.4333,113.6,-12.68,58,55,1.8,RU,1675658177
410,alofi,-19.0595,-169.9187,23.94,100,98,2.06,NU,1675658178
411,bilma,18.6853,12.9164,15.09,18,10,6.2,NE,1675657991
412,katsuura,35.1333,140.3,11.6,46,86,2.45,JP,1675658180
413,chateaubelair,13.2833,-61.25,24.33,78,100,8.07,VC,1675658181
414,jiazi,22.8779,116.067,19.24,81,98,3.03,CN,1675658181
415,mandalgovi,45.7625,106.2708,-9.48,84,100,4.68,MN,1675658182
416,fortuna,40.5982,-124.1573,8.29,95,100,4.12,US,1675658182
417,tokur,53.1333,132.9,-20.6,81,100,1.28,RU,1675658182
418,ullapool,57.8987,-5.1604,10.19,87,100,4.02,GB,1675658183
419,acari,-15.4311,-74.6158,23.71,85,55,1.12,PE,1675658183
420,raipur,21.2333,81.6333,25.08,27,2,0.0,IN,1675658184
421,husavik,66.0449,-17.3389,1.78,66,94,5.6,IS,1675658185
422,warri,5.5167,5.75,25.43,90,100,1.28,NG,1675658185
423,samoded,63.6083,40.5111,-17.58,95,69,2.32,RU,1675658186
424,mbini,1.574,9.6134,25.79,84,88,1.31,GQ,1675658187
425,trat,12.5,102.5,32.17,53,20,2.47,TH,1675658187
426,mnogovershinnyy,53.9353,139.9242,-18.72,77,96,2.46,RU,1675658188
427,ostrovnoy,68.0531,39.5131,-9.22,87,100,8.37,RU,1675658188
428,novyy urengoy,66.0833,76.6333,-24.06,100,83,1.48,RU,1675658189
429,nzega,-2.479,29.5564,13.68,82,76,1.2,RW,1675658189
430,olafsvik,64.8945,-23.7142,1.58,76,76,14.62,IS,1675658190
431,conceicao da barra,-18.5933,-39.7322,23.97,89,0,2.89,BR,1675658190
432,nosy varika,-20.5833,48.5333,23.29,92,92,3.08,MG,1675658191
433,sayyan,15.1718,44.3244,13.09,27,10,1.1,YE,1675658191
434,malakal,9.5334,31.6605,23.93,21,39,2.05,SS,1675658191
435,issoire,45.55,3.25,3.59,98,100,2.81,FR,1675658192
436,bytow,54.1706,17.4919,-3.22,88,100,1.45,PL,1675658135
437,puro,12.4841,123.3827,28.35,72,67,3.98,PH,1675658192
438,mafinga,-7.25,35.0667,18.97,92,96,1.01,TZ,1675658193
439,guwahati,26.1862,91.751,21.95,94,40,0.0,IN,1675657966
440,nome,64.5011,-165.4064,-10.96,79,40,5.14,US,1675658063
441,likasi,-10.9814,26.7333,16.78,96,100,1.49,CD,1675658193
442,hargeysa,9.56,44.065,16.57,33,53,3.99,SO,1675658194
443,srednekolymsk,67.45,153.6833,-32.51,98,100,2.55,RU,1675658194
444,broken hill,-31.95,141.4333,30.19,20,0,5.49,AU,1675657990
445,mantua,45.1667,10.7833,4.08,85,26,1.34,IT,1675658195
446,corrales,35.2378,-106.6067,12.36,28,0,5.14,US,1675658195
447,kenai,60.5544,-151.2583,-1.59,72,100,12.86,US,1675658195
448,vagur,61.4732,-6.8119,8.43,89,100,17.48,FO,1675658195
449,nicoya,10.1483,-85.452,23.32,75,42,5.84,CR,1675658196
450,skjervoy,70.0311,20.9714,2.0,74,100,7.61,NO,1675658196
451,farsund,58.0948,6.8047,4.41,100,72,2.98,NO,1675658196
452,matamoros,25.5333,-103.25,17.28,26,0,2.23,MX,1675658197
453,dauphin,51.1494,-100.0502,-10.92,100,0,1.54,CA,1675658197
454,shirvan,39.9509,48.8994,5.98,77,96,1.51,AZ,1675658198
455,saint-joseph,-21.3667,55.6167,28.21,75,57,4.81,RE,1675658198
456,aguimes,27.9054,-15.4461,14.35,63,20,4.12,ES,1675658198
457,toyooka,35.5333,134.8333,9.03,53,75,0.51,JP,1675658198
458,poum,-20.2333,164.0167,28.9,79,97,7.53,NC,1675658199
459,san quintin,30.4833,-115.95,13.51,84,50,9.0,MX,1675658199
460,taonan,45.3333,122.7833,-5.54,50,19,3.28,CN,1675658199
461,celestun,20.8667,-90.4,22.14,73,28,5.81,MX,1675657903
462,palimbang,6.2106,124.1894,29.37,69,94,2.59,PH,1675658200
463,vitim,59.4511,112.5578,-20.88,93,99,0.38,RU,1675658200
464,marsh harbour,26.5412,-77.0636,23.34,77,83,7.12,BS,1675658143
465,birjand,32.8663,59.2211,1.26,60,0,3.09,IR,1675658201
466,aklavik,68.2191,-135.0107,-41.59,100,42,0.51,CA,1675657983
467,morro bay,35.3658,-120.8499,10.81,85,3,5.1,US,1675658201
468,agadez,19.75,10.25,12.76,23,7,3.76,NE,1675658201
469,taoudenni,22.6783,-3.9836,14.01,31,86,4.04,ML,1675658202
470,zanesville,39.9404,-82.0132,8.33,68,100,4.12,US,1675658202
471,surgut,61.25,73.4167,-19.9,84,100,0.0,RU,1675658202
472,cabo san lucas,22.8909,-109.9124,20.84,78,75,5.53,MX,1675658015
473,izumo,35.3667,132.7667,10.97,61,75,2.06,JP,1675658203
474,lichtenburg,-26.152,26.1597,17.94,71,19,1.63,ZA,1675658203
475,camacha,33.0833,-16.3333,13.68,63,40,4.12,PT,1675658203
476,mosquera,4.7059,-74.2302,10.05,87,40,1.03,CO,1675658204
477,manicore,-5.8092,-61.3003,22.97,94,0,1.03,BR,1675658204
478,itacoatiara,-3.1431,-58.4442,22.79,97,100,0.85,BR,1675657905
479,panguna,-6.3164,155.4848,22.07,91,100,0.96,PG,1675658205
480,turukhansk,65.8167,87.9833,-18.78,99,99,1.53,RU,1675658205
481,tessalit,20.1986,1.0114,18.08,12,1,3.14,ML,1675658205
482,yasnyy,51.0333,59.8742,-20.83,100,97,2.07,RU,1675658206
483,badiraguato,25.3667,-107.5167,13.72,47,22,1.61,MX,1675658206
484,boende,-0.2167,20.8667,21.5,76,70,1.26,CD,1675658206
485,novosokolniki,56.3463,30.1578,-5.98,95,100,4.17,RU,1675658207
486,chicama,-7.8447,-79.1469,21.3,75,43,2.03,PE,1675658207
487,dakar,14.6937,-17.4441,18.49,75,53,10.44,SN,1675658009
488,ola,59.5833,151.2833,-19.7,83,97,3.22,RU,1675657995
489,abaza,52.655,90.0928,-10.45,91,80,1.15,RU,1675658208
490,hibbing,47.4272,-92.9377,-16.36,46,0,0.0,US,1675658209
491,sabang,5.8933,95.3214,27.75,70,63,5.2,ID,1675658209
492,samagaltay,50.6022,95.0047,-15.85,91,93,0.96,RU,1675658209
493,nabire,-3.3667,135.4833,26.78,88,100,1.55,ID,1675658210
494,piskavica,44.8681,16.9736,-4.43,78,44,0.76,BA,1675658210
495,smithers,54.7804,-127.1743,0.18,80,75,1.03,CA,1675658210
496,sinop,41.7711,34.8709,0.29,96,100,1.84,TR,1675658211
497,aksarka,66.5606,67.7975,-26.42,100,30,1.17,RU,1675658211
498,ilhabela,-23.7781,-45.3581,24.83,87,100,1.76,BR,1675658211
499,ust-barguzin,53.45,108.9833,-10.5,88,100,3.73,RU,1675658212
500,pisco,-13.7,-76.2167,23.03,88,0,2.57,PE,1675658212
501,murwillumbah,-28.3167,153.4,28.88,57,75,6.17,AU,1675658102
502,chinhoyi,-17.3667,30.2,18.63,92,81,1.49,ZW,1675658212
503,dingle,10.9995,122.6711,28.72,72,74,5.11,PH,1675658213
504,veraval,20.9,70.3667,25.3,47,9,5.36,IN,1675658213
505,cooma,-36.2333,149.1333,27.29,24,12,3.52,AU,1675658213
506,manokwari,-0.8667,134.0833,25.01,88,100,1.89,ID,1675658214
507,kupang,-10.1667,123.5833,32.32,70,75,4.63,ID,1675658214
508,delhi,28.6667,77.2167,20.05,52,0,2.06,IN,1675658191
509,garissa,-0.4536,39.6401,24.07,72,0,2.74,KE,1675658214
510,belawan,3.7755,98.6832,27.16,85,100,0.97,ID,1675658215
511,pimenta bueno,-11.6725,-61.1936,21.78,97,74,0.32,BR,1675658215
512,tshikapa,-6.4167,20.8,19.27,96,79,0.67,CD,1675658216
513,malmyzh,56.5205,50.6818,-18.1,100,100,1.54,RU,1675658216
514,portel,-1.9356,-50.8211,22.43,97,87,1.22,BR,1675658216
515,saa,4.3667,11.45,21.46,95,68,1.3,CM,1675658217
516,palana,59.1167,159.9667,-21.13,99,70,4.3,RU,1675658217
517,sabaudia,41.3003,13.0282,3.6,64,58,3.68,IT,1675658217
518,gogosari,43.8667,25.7,-1.86,60,100,2.49,RO,1675658218
519,vilyuysk,63.7553,121.6247,-36.86,94,83,2.07,RU,1675658218
520,poltavka,54.3663,71.7632,-19.92,99,96,1.91,RU,1675658219
521,camana,-16.6228,-72.7111,24.48,82,100,1.31,PE,1675658219
522,mongo,12.1844,18.693,21.28,14,92,3.08,TD,1675658219
523,atherton,53.5237,-2.4935,1.9,89,70,0.45,GB,1675658220
524,chauk,20.8833,94.8167,27.2,26,12,0.7,MM,1675658011
525,indiaroba,-11.5192,-37.5117,24.5,90,24,2.11,BR,1675658220
526,mossendjo,-2.9506,12.7261,20.89,99,100,1.09,CG,1675658220
527,sao felix do xingu,-6.6447,-51.995,21.08,99,80,0.51,BR,1675658221
528,nizhniy odes,63.6445,54.856,-27.41,100,100,1.06,RU,1675658221
529,praia,14.9215,-23.5087,20.3,64,75,10.29,CV,1675658222
530,sechura,-5.5569,-80.8222,23.59,76,44,3.74,PE,1675658223
531,narsaq,60.9167,-46.05,-13.88,86,86,3.72,GL,1675658224
532,chara,56.9064,118.2631,-21.87,93,100,1.48,RU,1675658224
533,birao,10.2849,22.7882,18.85,18,25,2.46,CF,1675658225
534,anisoc,1.8658,10.7689,21.7,95,85,0.43,GQ,1675658225
535,baruun-urt,46.6806,113.2792,-11.46,73,17,2.66,MN,1675658014
536,manoel urbano,-8.8389,-69.2597,21.68,100,96,0.4,BR,1675658226
537,ca mau,9.1769,105.15,33.18,42,15,5.96,VN,1675658161
538,starkville,33.4504,-88.8184,7.81,100,0,0.0,US,1675658095
539,yulara,-25.2406,130.9889,33.19,9,0,4.48,AU,1675658227
540,grindavik,63.8424,-22.4338,2.26,87,75,9.77,IS,1675658228
541,wiarton,44.7407,-81.1332,0.22,80,100,3.09,CA,1675658228
542,chapleau,47.8405,-83.4034,-25.32,100,94,0.98,CA,1675658229
543,viransehir,37.2353,39.7631,6.51,98,100,6.63,TR,1675658229
544,dharchula,29.85,80.5333,17.81,20,0,2.6,IN,1675658229
545,arequipa,-16.3989,-71.535,14.01,85,100,0.61,PE,1675658134
546,rundu,-17.9333,19.7667,18.83,93,100,0.81,NA,1675658230
547,blankenberge,51.3131,3.1323,5.53,79,63,2.85,BE,1675658232
548,kemijarvi,66.7131,27.4306,-15.7,98,54,1.35,FI,1675658232
549,tartus,34.889,35.8866,11.59,89,91,13.39,SY,1675658233
550,kahama,-3.8333,32.6,17.23,94,88,0.96,TZ,1675658234
551,ushibuka,32.1906,130.0228,11.24,81,100,4.43,JP,1675658234
552,verkhnyaya sinyachikha,57.976,61.6673,-10.26,96,100,1.22,RU,1675658235
553,sorland,67.667,12.6934,5.92,86,100,13.97,NO,1675658235
554,huilong,31.8111,121.655,8.29,97,100,3.22,CN,1675657980
